{
 "United Kingdom": [
  {
   "location": {
    "city": "Manchester", 
    "zip": "M16 0RA", 
    "country": "United Kingdom", 
    "longitude": -2.2905264175992, 
    "street": "Sir Matt Busby Way", 
    "latitude": 53.463293438641
   }, 
   "id": "108738212520189", 
   "name": "Old Trafford"
  }
 ], 
 "United States": [
  {
   "location": {
    "city": "New Haven", 
    "zip": "06511", 
    "country": "United States", 
    "longitude": -72.92861155789, 
    "state": "CT", 
    "latitude": 41.309985165387
   }, 
   "id": "374809010319", 
   "name": "Yale University"
  }, 
  {
   "location": {
    "city": "New Haven", 
    "zip": "06511", 
    "country": "United States", 
    "longitude": -72.92861155789, 
    "state": "CT", 
    "latitude": 41.309985165387
   }, 
   "id": "374809010319", 
   "name": "Yale University"
  }, 
  {
   "location": {
    "city": "Mystic", 
    "zip": "06355", 
    "country": "United States", 
    "longitude": -71.953264097181, 
    "state": "CT", 
    "latitude": 41.373410917558
   }, 
   "id": "187099324676060", 
   "name": "Mystic Seaport & Aquarium"
  }, 
  {
   "location": {
    "city": "New York", 
    "zip": "10017-3823", 
    "country": "United States", 
    "longitude": -73.981394757146, 
    "state": "NY", 
    "street": "50 Vanderbilt Ave", 
    "latitude": 40.754845032317
   }, 
   "id": "120790267936584", 
   "name": "Yale Club of New York City"
  }, 
  {
   "location": {
    "city": "New York", 
    "zip": "10017-3823", 
    "country": "United States", 
    "longitude": -73.981394757146, 
    "state": "NY", 
    "street": "50 Vanderbilt Ave", 
    "latitude": 40.754845032317
   }, 
   "id": "120790267936584", 
   "name": "Yale Club of New York City"
  }, 
  {
   "location": {
    "city": "New York", 
    "zip": "10017-3823", 
    "country": "United States", 
    "longitude": -73.981394757146, 
    "state": "NY", 
    "street": "50 Vanderbilt Ave", 
    "latitude": 40.754845032317
   }, 
   "id": "120790267936584", 
   "name": "Yale Club of New York City"
  }, 
  {
   "location": {
    "city": "New York", 
    "zip": "10017-3823", 
    "country": "United States", 
    "longitude": -73.981394757146, 
    "state": "NY", 
    "street": "50 Vanderbilt Ave", 
    "latitude": 40.754845032317
   }, 
   "id": "120790267936584", 
   "name": "Yale Club of New York City"
  }, 
  {
   "location": {
    "city": "New Haven", 
    "zip": "06511", 
    "country": "United States", 
    "longitude": -72.92861155789, 
    "state": "CT", 
    "latitude": 41.309985165387
   }, 
   "id": "374809010319", 
   "name": "Yale University"
  }, 
  {
   "location": {
    "city": "New Haven", 
    "zip": "06511", 
    "country": "United States", 
    "longitude": -72.92861155789, 
    "state": "CT", 
    "latitude": 41.309985165387
   }, 
   "id": "374809010319", 
   "name": "Yale University"
  }, 
  {
   "location": {
    "city": "New Haven", 
    "zip": "06511", 
    "country": "United States", 
    "longitude": -72.92861155789, 
    "state": "CT", 
    "latitude": 41.309985165387
   }, 
   "id": "374809010319", 
   "name": "Yale University"
  }, 
  {
   "location": {
    "city": "New Haven", 
    "zip": "06511", 
    "country": "United States", 
    "longitude": -72.92861155789, 
    "state": "CT", 
    "latitude": 41.309985165387
   }, 
   "id": "374809010319", 
   "name": "Yale University"
  }, 
  {
   "location": {
    "city": "New York", 
    "zip": "10017", 
    "country": "United States", 
    "longitude": -73.967328457081, 
    "state": "NY", 
    "latitude": 40.751532576283
   }, 
   "id": "414763148578146", 
   "name": "United Nations NYC"
  }, 
  {
   "location": {
    "city": "Agawam", 
    "zip": "01001", 
    "country": "United States", 
    "longitude": -72.615667102052, 
    "state": "MA", 
    "latitude": 42.037672020075
   }, 
   "id": "52129033739", 
   "name": "Six Flags New England"
  }, 
  {
   "location": {
    "city": "Agawam", 
    "zip": "01001", 
    "country": "United States", 
    "longitude": -72.615667102052, 
    "state": "MA", 
    "latitude": 42.037672020075
   }, 
   "id": "52129033739", 
   "name": "Six Flags New England"
  }, 
  {
   "location": {
    "city": "Agawam", 
    "zip": "01001", 
    "country": "United States", 
    "longitude": -72.615667102052, 
    "state": "MA", 
    "latitude": 42.037672020075
   }, 
   "id": "52129033739", 
   "name": "Six Flags New England"
  }, 
  {
   "location": {
    "city": "Agawam", 
    "zip": "01001", 
    "country": "United States", 
    "longitude": -72.615667102052, 
    "state": "MA", 
    "latitude": 42.037672020075
   }, 
   "id": "52129033739", 
   "name": "Six Flags New England"
  }
 ], 
 "Taiwan": [
  {
   "location": {
    "city": "Taipei", 
    "zip": "110", 
    "country": "Taiwan", 
    "longitude": 121.56478799751, 
    "street": "\u53f0\u5317\u5e02\u4fe1\u7fa9\u5340\u4fe1\u7fa9\u8def\u4e94\u6bb57\u865f85F", 
    "latitude": 25.033747614027
   }, 
   "id": "459687087387737", 
   "name": "Taipei 101 85\u6a13\u9ad8\u7a7a\u666f\u89c0\u9910\u5ef3-\u96a8\u610f\u9ce5\u5730\u65b9"
  }, 
  {
   "location": {
    "city": "Taipei", 
    "zip": "110", 
    "country": "Taiwan", 
    "longitude": 121.56478799751, 
    "street": "\u53f0\u5317\u5e02\u4fe1\u7fa9\u5340\u4fe1\u7fa9\u8def\u4e94\u6bb57\u865f85F", 
    "latitude": 25.033747614027
   }, 
   "id": "459687087387737", 
   "name": "Taipei 101 85\u6a13\u9ad8\u7a7a\u666f\u89c0\u9910\u5ef3-\u96a8\u610f\u9ce5\u5730\u65b9"
  }, 
  {
   "location": {
    "city": "Taipei", 
    "zip": "110", 
    "country": "Taiwan", 
    "longitude": 121.56478799751, 
    "street": "\u53f0\u5317\u5e02\u4fe1\u7fa9\u5340\u4fe1\u7fa9\u8def\u4e94\u6bb57\u865f85F", 
    "latitude": 25.033747614027
   }, 
   "id": "459687087387737", 
   "name": "Taipei 101 85\u6a13\u9ad8\u7a7a\u666f\u89c0\u9910\u5ef3-\u96a8\u610f\u9ce5\u5730\u65b9"
  }, 
  {
   "location": {
    "city": "Taipei", 
    "zip": "110", 
    "country": "Taiwan", 
    "longitude": 121.56478799751, 
    "street": "\u53f0\u5317\u5e02\u4fe1\u7fa9\u5340\u4fe1\u7fa9\u8def\u4e94\u6bb57\u865f85F", 
    "latitude": 25.033747614027
   }, 
   "id": "459687087387737", 
   "name": "Taipei 101 85\u6a13\u9ad8\u7a7a\u666f\u89c0\u9910\u5ef3-\u96a8\u610f\u9ce5\u5730\u65b9"
  }
 ], 
 "India": [
  {
   "location": {
    "city": "Calcutta", 
    "zip": "700016", 
    "country": "India", 
    "longitude": 88.35266625335, 
    "street": "Park Street", 
    "latitude": 22.552473360758
   }, 
   "id": "196626353711041", 
   "name": "Peter Cat"
  }, 
  {
   "location": {
    "city": "Calcutta", 
    "zip": "700033", 
    "country": "India", 
    "longitude": 88.354139948432, 
    "street": "26, Prince Anwar Shah Road ", 
    "latitude": 22.502000247155
   }, 
   "id": "388168451271996", 
   "name": "Princeton Club"
  }, 
  {
   "location": {
    "city": "Calcutta", 
    "zip": "700054", 
    "country": "India", 
    "longitude": 88.400796451252, 
    "street": "164/1 Maniktala Main Road, 9th Floor [Beside Apollo Gleaneagles Hospital EM Bypass", 
    "latitude": 22.577807488535
   }, 
   "id": "211106118905826", 
   "name": "Mani Square Mall"
  }, 
  {
   "location": {
    "city": "Calcutta", 
    "zip": "700054", 
    "country": "India", 
    "longitude": 88.400796451252, 
    "street": "164/1 Maniktala Main Road, 9th Floor [Beside Apollo Gleaneagles Hospital EM Bypass", 
    "latitude": 22.577807488535
   }, 
   "id": "211106118905826", 
   "name": "Mani Square Mall"
  }, 
  {
   "location": {
    "latitude": 15.561284161277, 
    "city": "Goa", 
    "street": "Baga beach", 
    "longitude": 73.749374030573, 
    "country": "India"
   }, 
   "id": "169240516442006", 
   "name": "Brittos"
  }, 
  {
   "location": {
    "city": "New Delhi", 
    "zip": "700001", 
    "country": "India", 
    "longitude": 88.3740687129, 
    "latitude": 22.5807088892, 
    "located_in": "106517799384578"
   }, 
   "id": "152164611567581", 
   "name": "Kolkata North"
  }, 
  {
   "location": {
    "city": "Calcutta", 
    "zip": "700032", 
    "country": "India", 
    "longitude": 88.3678, 
    "street": "Jadavpur", 
    "latitude": 22.49281
   }, 
   "id": "141134689286150", 
   "name": "Jadavpur University"
  }, 
  {
   "location": {
    "city": "Calcutta", 
    "zip": "700032", 
    "country": "India", 
    "longitude": 88.3678, 
    "street": "Jadavpur", 
    "latitude": 22.49281
   }, 
   "id": "141134689286150", 
   "name": "Jadavpur University"
  }, 
  {
   "location": {
    "city": "Calcutta", 
    "zip": "700054", 
    "country": "India", 
    "longitude": 88.400796451252, 
    "street": "164/1 Maniktala Main Road, 9th Floor [Beside Apollo Gleaneagles Hospital EM Bypass", 
    "latitude": 22.577807488535
   }, 
   "id": "211106118905826", 
   "name": "Mani Square Mall"
  }, 
  {
   "location": {
    "city": "Calcutta", 
    "zip": "700054", 
    "country": "India", 
    "longitude": 88.400796451252, 
    "street": "164/1 Maniktala Main Road, 9th Floor [Beside Apollo Gleaneagles Hospital EM Bypass", 
    "latitude": 22.577807488535
   }, 
   "id": "211106118905826", 
   "name": "Mani Square Mall"
  }
 ], 
 "Singapore": [
  {
   "location": {
    "city": "Kent Ridge", 
    "zip": "119279", 
    "country": "Singapore", 
    "longitude": 103.77217930799, 
    "street": "50 Kent Ridge Crescent, National University of Singapore", 
    "latitude": 1.3017797541883
   }, 
   "id": "107498635997871", 
   "name": "University Cultural Centre"
  }, 
  {
   "location": {
    "city": "Kent Ridge", 
    "zip": "119279", 
    "country": "Singapore", 
    "longitude": 103.77217930799, 
    "street": "50 Kent Ridge Crescent, National University of Singapore", 
    "latitude": 1.3017797541883
   }, 
   "id": "107498635997871", 
   "name": "University Cultural Centre"
  }, 
  {
   "location": {
    "city": "Singapore", 
    "zip": "60", 
    "country": "Singapore", 
    "longitude": 103.7390463629, 
    "street": "1.3125,103.7444444", 
    "latitude": 1.3199466535782
   }, 
   "id": "189991624374145", 
   "name": "Pandan Reservoir"
  }, 
  {
   "location": {
    "city": "Singapore", 
    "zip": "138614", 
    "country": "Singapore", 
    "longitude": 103.77312591916, 
    "street": "6 College Avenue East", 
    "latitude": 1.3083768512884
   }, 
   "id": "683119715051284", 
   "name": "Yale-NUS College"
  }, 
  {
   "location": {
    "latitude": 1.32159865816, 
    "city": "Singapore", 
    "longitude": 103.858387794, 
    "country": "Singapore"
   }, 
   "id": "279424168838364", 
   "name": "NUS University Cultural Centre"
  }, 
  {
   "location": {
    "city": "Singapore", 
    "zip": "138614", 
    "country": "Singapore", 
    "longitude": 103.77312591916, 
    "street": "6 College Avenue East", 
    "latitude": 1.3083768512884
   }, 
   "id": "683119715051284", 
   "name": "Yale-NUS College"
  }, 
  {
   "location": {
    "city": "Pasir Ris", 
    "zip": "51", 
    "country": "Singapore", 
    "longitude": 103.9509, 
    "street": "pasir ris", 
    "latitude": 1.38148333333
   }, 
   "id": "142827132400805", 
   "name": "Pasir Ris Park"
  }, 
  {
   "location": {
    "city": "Singapore", 
    "zip": "237978", 
    "country": "Singapore", 
    "longitude": 103.83612196635, 
    "street": "2 Orchard Link", 
    "latitude": 1.3008029306419
   }, 
   "id": "168911576531523", 
   "name": "SCAPE"
  }, 
  {
   "location": {
    "city": "Singapore", 
    "zip": "237978", 
    "country": "Singapore", 
    "longitude": 103.83612196635, 
    "street": "2 Orchard Link", 
    "latitude": 1.3008029306419
   }, 
   "id": "168911576531523", 
   "name": "SCAPE"
  }, 
  {
   "location": {
    "city": "Singapore", 
    "zip": "esa informacion es clacificada", 
    "country": "Singapore", 
    "longitude": 103.83606552965, 
    "street": "2 Orchard Link", 
    "latitude": 1.3007442051088, 
    "located_in": "168911576531523"
   }, 
   "id": "133002123435912", 
   "name": "Scape Warehouse"
  }, 
  {
   "location": {
    "city": "Singapore", 
    "zip": "esa informacion es clacificada", 
    "country": "Singapore", 
    "longitude": 103.83606552965, 
    "street": "2 Orchard Link", 
    "latitude": 1.3007442051088, 
    "located_in": "168911576531523"
   }, 
   "id": "133002123435912", 
   "name": "Scape Warehouse"
  }, 
  {
   "location": {
    "city": "Singapore", 
    "zip": "esa informacion es clacificada", 
    "country": "Singapore", 
    "longitude": 103.83606552965, 
    "street": "2 Orchard Link", 
    "latitude": 1.3007442051088, 
    "located_in": "168911576531523"
   }, 
   "id": "133002123435912", 
   "name": "Scape Warehouse"
  }, 
  {
   "location": {
    "city": "Singapore", 
    "zip": "esa informacion es clacificada", 
    "country": "Singapore", 
    "longitude": 103.83606552965, 
    "street": "2 Orchard Link", 
    "latitude": 1.3007442051088, 
    "located_in": "168911576531523"
   }, 
   "id": "133002123435912", 
   "name": "Scape Warehouse"
  }, 
  {
   "location": {
    "city": "Singapore", 
    "zip": "237978", 
    "country": "Singapore", 
    "longitude": 103.83612196635, 
    "street": "2 Orchard Link", 
    "latitude": 1.3008029306419
   }, 
   "id": "168911576531523", 
   "name": "SCAPE"
  }, 
  {
   "location": {
    "city": "Singapore", 
    "zip": "237978", 
    "country": "Singapore", 
    "longitude": 103.83612196635, 
    "street": "2 Orchard Link", 
    "latitude": 1.3008029306419
   }, 
   "id": "168911576531523", 
   "name": "SCAPE"
  }, 
  {
   "location": {
    "city": "Singapore", 
    "zip": "237978", 
    "country": "Singapore", 
    "longitude": 103.83612196635, 
    "street": "2 Orchard Link", 
    "latitude": 1.3008029306419
   }, 
   "id": "168911576531523", 
   "name": "SCAPE"
  }, 
  {
   "location": {
    "city": "Singapore", 
    "zip": "038981", 
    "country": "Singapore", 
    "longitude": 103.85570414539, 
    "street": "1 Esplanade Drive", 
    "latitude": 1.2894301765932
   }, 
   "id": "116177868444945", 
   "name": "Esplanade \u2013 Theatres On The Bay"
  }, 
  {
   "location": {
    "city": "Singapore", 
    "zip": "Singapore 138614", 
    "country": "Singapore", 
    "longitude": 103.77300819214, 
    "street": "6 College Avenue East, #B1-01", 
    "latitude": 1.3083388453214
   }, 
   "id": "237886262902734", 
   "name": "Yale-NUS College Admissions"
  }, 
  {
   "location": {
    "city": "Singapore", 
    "zip": "Singapore 138614", 
    "country": "Singapore", 
    "longitude": 103.77300819214, 
    "street": "6 College Avenue East, #B1-01", 
    "latitude": 1.3083388453214
   }, 
   "id": "237886262902734", 
   "name": "Yale-NUS College Admissions"
  }, 
  {
   "location": {
    "city": "Singapore", 
    "zip": "238868", 
    "country": "Singapore", 
    "longitude": 103.83174413786, 
    "street": "Singapore", 
    "latitude": 1.3049808735029
   }, 
   "id": "205236476178156", 
   "name": "Shaw Cinema Lido Orchard"
  }, 
  {
   "location": {
    "city": "Singapore", 
    "zip": "238868", 
    "country": "Singapore", 
    "longitude": 103.83174413786, 
    "street": "Singapore", 
    "latitude": 1.3049808735029
   }, 
   "id": "205236476178156", 
   "name": "Shaw Cinema Lido Orchard"
  }, 
  {
   "location": {
    "city": "Singapore", 
    "zip": "Singapore 138614", 
    "country": "Singapore", 
    "longitude": 103.77300819214, 
    "street": "6 College Avenue East, #B1-01", 
    "latitude": 1.3083388453214
   }, 
   "id": "237886262902734", 
   "name": "Yale-NUS College Admissions"
  }, 
  {
   "location": {
    "city": "Singapore", 
    "zip": "Singapore 138614", 
    "country": "Singapore", 
    "longitude": 103.77300819214, 
    "street": "6 College Avenue East, #B1-01", 
    "latitude": 1.3083388453214
   }, 
   "id": "237886262902734", 
   "name": "Yale-NUS College Admissions"
  }, 
  {
   "location": {
    "city": "Singapore", 
    "zip": "139745", 
    "country": "Singapore", 
    "longitude": 103.7852122182, 
    "street": "25 Dover Close East", 
    "latitude": 1.3030632205372
   }, 
   "id": "163968190300589", 
   "name": "Anglo-Chinese Junior College"
  }, 
  {
   "location": {
    "city": "Singapore", 
    "zip": "309937", 
    "country": "Singapore", 
    "longitude": 103.83485252599, 
    "street": "80 Barker Road", 
    "latitude": 1.3200739314046
   }, 
   "id": "182437265126655", 
   "name": "ACS Oldham Hall"
  }, 
  {
   "location": {
    "city": "Singapore", 
    "zip": "309937", 
    "country": "Singapore", 
    "longitude": 103.83485252599, 
    "street": "80 Barker Road", 
    "latitude": 1.3200739314046
   }, 
   "id": "182437265126655", 
   "name": "ACS Oldham Hall"
  }, 
  {
   "location": {
    "city": "Singapore", 
    "zip": "139745", 
    "country": "Singapore", 
    "longitude": 103.7852122182, 
    "street": "25 Dover Close East", 
    "latitude": 1.3030632205372
   }, 
   "id": "163968190300589", 
   "name": "Anglo-Chinese Junior College"
  }, 
  {
   "location": {
    "latitude": 1.4078810143117, 
    "city": "Singapore", 
    "longitude": 103.74763040405, 
    "country": "Singapore"
   }, 
   "id": "135724386504363", 
   "name": "Novena"
  }, 
  {
   "location": {
    "latitude": 1.4078810143117, 
    "city": "Singapore", 
    "longitude": 103.74763040405, 
    "country": "Singapore"
   }, 
   "id": "135724386504363", 
   "name": "Novena"
  }, 
  {
   "location": {
    "latitude": 1.4078810143117, 
    "city": "Singapore", 
    "longitude": 103.74763040405, 
    "country": "Singapore"
   }, 
   "id": "135724386504363", 
   "name": "Novena"
  }, 
  {
   "location": {
    "city": "Kallang", 
    "zip": "397693", 
    "country": "Singapore", 
    "longitude": 103.87662945522, 
    "street": "5 Stadium Walk", 
    "latitude": 1.3024890725972
   }, 
   "id": "168301239869584", 
   "name": "Leisure Park Kallang"
  }, 
  {
   "location": {
    "city": "Singapore", 
    "country": "Singapore", 
    "longitude": 103.84963430846, 
    "street": "Waterloo Street", 
    "latitude": 1.2986730187541, 
    "located_in": "192018340809091"
   }, 
   "id": "158576354291105", 
   "name": "Sentosa Island"
  }, 
  {
   "location": {
    "city": "Singapore", 
    "country": "Singapore", 
    "longitude": 103.84963430846, 
    "street": "Waterloo Street", 
    "latitude": 1.2986730187541, 
    "located_in": "192018340809091"
   }, 
   "id": "158576354291105", 
   "name": "Sentosa Island"
  }, 
  {
   "location": {
    "city": "Singapore", 
    "country": "Singapore", 
    "longitude": 103.84963430846, 
    "street": "Waterloo Street", 
    "latitude": 1.2986730187541, 
    "located_in": "192018340809091"
   }, 
   "id": "158576354291105", 
   "name": "Sentosa Island"
  }, 
  {
   "location": {
    "city": "Singapore", 
    "country": "Singapore", 
    "longitude": 103.84963430846, 
    "street": "Waterloo Street", 
    "latitude": 1.2986730187541, 
    "located_in": "192018340809091"
   }, 
   "id": "158576354291105", 
   "name": "Sentosa Island"
  }, 
  {
   "location": {
    "city": "Singapore", 
    "zip": "538789", 
    "country": "Singapore", 
    "longitude": 103.883092, 
    "street": "11 Hougang Avenue 8  ", 
    "latitude": 1.37243
   }, 
   "id": "105923679439234", 
   "name": "Xinmin Secondary School"
  }, 
  {
   "location": {
    "city": "Singapore", 
    "zip": "538789", 
    "country": "Singapore", 
    "longitude": 103.883092, 
    "street": "11 Hougang Avenue 8  ", 
    "latitude": 1.37243
   }, 
   "id": "105923679439234", 
   "name": "Xinmin Secondary School"
  }
 ]
}